{
  "mensas": [
    {
      "name": "archimedes",
      "facility_id": "8",
      "name_display": "Archimedes",
      "location": "Zentrum (ETH)",
      "opening_time_start": 0,
      "opening_time_end": 0,
      "dining_time_start": 0,
      "dining_time_end": 0,
      "building": "DEFAULT",
      "street": "DEFAULT",
      "city": "DEFAULT",
      "google_maps_link": "DEFAULT",
      "homepage": "DEFAULT"
    },
    {
      "name": "clausiusbar",
      "facility_id": "3",
      "name_display": "Clausiusbar",
      "location": "Zentrum (ETH)",
      "opening_time_start": 0,
      "opening_time_end": 0,
      "dining_time_start": 0,
      "dining_time_end": 0,
      "building": "DEFAULT",
      "street": "DEFAULT",
      "city": "DEFAULT",
      "google_maps_link": "DEFAULT",
      "homepage": "DEFAULT"
    },
    {
      "name": "dozentenfoyer",
      "facility_id": "5",
      "name_display": "Dozentenfoyer",
      "location": "Zentrum (ETH)",
      "opening_time_start": 0,
      "opening_time_end": 0,
      "dining_time_start": 0,
      "dining_time_end": 0,
      "building": "DEFAULT",
      "street": "DEFAULT",
      "city": "DEFAULT",
      "google_maps_link": "DEFAULT",
      "homepage": "DEFAULT"
    },
    {
      "name": "food-lab",
      "facility_id": "7",
      "name_display": "Food&Lab",
      "location": "Zentrum (ETH)",
      "opening_time_start": 0,
      "opening_time_end": 0,
      "dining_time_start": 0,
      "dining_time_end": 0,
      "building": "DEFAULT",
      "street": "DEFAULT",
      "city": "DEFAULT",
      "google_maps_link": "DEFAULT",
      "homepage": "DEFAULT"
    },
    {
      "name": "mensa-polyterrasse-lunch",
      "facility_id": "9",
      "name_display": "Mensa Polyterrasse (Lunch)",
      "location": "Zentrum (ETH)",
      "opening_time_start": 11.15,
      "opening_time_end": 14.0,
      "dining_time_start": 11.15,
      "dining_time_end": 14.0,
      "building": "MM B79",
      "street": "Leonhardstrasse 34",
      "city": "8092 Z체rich",
      "google_maps_link": "https://maps.app.goo.gl/poto5Zj5eWrUmzrRA",
      "homepage": "https://ethz.ch/de/campus/erleben/gastronomie-und-einkaufen/gastronomie/restaurants-und-cafeterias/zentrum/mensa-polyterrasse.html"
    },
    {
      "name": "mensa-polyterrasse-dinner",
      "facility_id": "9",
      "name_display": "Mensa Polyterrasse (Dinner)",
      "location": "Zentrum (ETH)",
      "opening_time_start": 0,
      "opening_time_end": 0,
      "dining_time_start": 0,
      "dining_time_end": 0,
      "building": "DEFAULT",
      "street": "DEFAULT",
      "city": "DEFAULT",
      "google_maps_link": "DEFAULT",
      "homepage": "DEFAULT"
    },
    {
      "name": "polysnack",
      "facility_id": "10",
      "name_display": "Polysnack",
      "location": "Zentrum (ETH)",
      "opening_time_start": 0,
      "opening_time_end": 0,
      "dining_time_start": 0,
      "dining_time_end": 0,
      "building": "DEFAULT",
      "street": "DEFAULT",
      "city": "DEFAULT",
      "google_maps_link": "DEFAULT",
      "homepage": "DEFAULT"
    },
    {
      "name": "tannenbar",
      "facility_id": "11",
      "name_display": "Tannenbar",
      "location": "Zentrum (ETH)",
      "opening_time_start": 0,
      "opening_time_end": 0,
      "dining_time_start": 0,
      "dining_time_end": 0,
      "building": "DEFAULT",
      "street": "DEFAULT",
      "city": "DEFAULT",
      "google_maps_link": "DEFAULT",
      "homepage": "DEFAULT"
    },
    {
      "name": "alumni-quattro-lounge-lunch",
      "facility_id": "14",
      "name_display": "Alumni Quattro Lounge (Lunch)",
      "location": "DEFAULT",
      "opening_time_start": 0,
      "opening_time_end": 0,
      "dining_time_start": 0,
      "dining_time_end": 0,
      "building": "DEFAULT",
      "street": "DEFAULT",
      "city": "DEFAULT",
      "google_maps_link": "DEFAULT",
      "homepage": "DEFAULT"
    },
    {
      "name": "alumni-quattro-lounge-dinner",
      "facility_id": "14",
      "name_display": "Alumni Quattro Lounge (Dinner)",
      "location": "DEFAULT",
      "opening_time_start": 0,
      "opening_time_end": 0,
      "dining_time_start": 0,
      "dining_time_end": 0,
      "building": "DEFAULT",
      "street": "DEFAULT",
      "city": "DEFAULT",
      "google_maps_link": "DEFAULT",
      "homepage": "DEFAULT"
    },
    {
      "name": "bistro-hpi",
      "facility_id": "16",
      "name_display": "Bistro HPI",
      "location": "DEFAULT",
      "opening_time_start": 0,
      "opening_time_end": 0,
      "dining_time_start": 0,
      "dining_time_end": 0,
      "building": "DEFAULT",
      "street": "DEFAULT",
      "city": "DEFAULT",
      "google_maps_link": "DEFAULT",
      "homepage": "DEFAULT"
    },
    {
      "name": "food-market-green-day",
      "facility_id": "17",
      "name_display": "Food Market Green Day",
      "location": "DEFAULT",
      "opening_time_start": 0,
      "opening_time_end": 0,
      "dining_time_start": 0,
      "dining_time_end": 0,
      "building": "DEFAULT",
      "street": "DEFAULT",
      "city": "DEFAULT",
      "google_maps_link": "DEFAULT",
      "homepage": "DEFAULT"
    },
    {
      "name": "food-market-grill-bbq",
      "facility_id": "18",
      "name_display": "Food Market Grill BBQ",
      "location": "DEFAULT",
      "opening_time_start": 0,
      "opening_time_end": 0,
      "dining_time_start": 0,
      "dining_time_end": 0,
      "building": "DEFAULT",
      "street": "DEFAULT",
      "city": "DEFAULT",
      "google_maps_link": "DEFAULT",
      "homepage": "DEFAULT"
    },
    {
      "name": "food-market-pizza-pasta-day",
      "facility_id": "19",
      "name_display": "Food Market Pizza Pasta Day",
      "location": "DEFAULT",
      "opening_time_start": 0,
      "opening_time_end": 0,
      "dining_time_start": 0,
      "dining_time_end": 0,
      "building": "DEFAULT",
      "street": "DEFAULT",
      "city": "DEFAULT",
      "google_maps_link": "DEFAULT",
      "homepage": "DEFAULT"
    },
    {
      "name": "food-market-dinner",
      "facility_id": "18",
      "name_display": "Food Market (Dinner)",
      "location": "DEFAULT",
      "opening_time_start": 0,
      "opening_time_end": 0,
      "dining_time_start": 0,
      "dining_time_end": 0,
      "building": "DEFAULT",
      "street": "DEFAULT",
      "city": "DEFAULT",
      "google_maps_link": "DEFAULT",
      "homepage": "DEFAULT"
    },
    {
      "name": "fusion-meal",
      "facility_id": "20",
      "name_display": "Fusion Meal",
      "location": "DEFAULT",
      "opening_time_start": 0,
      "opening_time_end": 0,
      "dining_time_start": 0,
      "dining_time_end": 0,
      "building": "DEFAULT",
      "street": "DEFAULT",
      "city": "DEFAULT",
      "google_maps_link": "DEFAULT",
      "homepage": "DEFAULT"
    },
    {
      "name": "fusion-coffee",
      "facility_id": "21",
      "name_display": "Fusion Coffee",
      "location": "DEFAULT",
      "opening_time_start": 0,
      "opening_time_end": 0,
      "dining_time_start": 0,
      "dining_time_end": 0,
      "building": "DEFAULT",
      "street": "DEFAULT",
      "city": "DEFAULT",
      "google_maps_link": "DEFAULT",
      "homepage": "DEFAULT"
    },
    {
      "name": "rice-up",
      "facility_id": "22",
      "name_display": "RiceUp",
      "location": "DEFAULT",
      "opening_time_start": 0,
      "opening_time_end": 0,
      "dining_time_start": 0,
      "dining_time_end": 0,
      "building": "DEFAULT",
      "street": "DEFAULT",
      "city": "DEFAULT",
      "google_maps_link": "DEFAULT",
      "homepage": "DEFAULT"
    },
    {
      "name": "octavo",
      "facility_id": "23",
      "name_display": "Octavo",
      "location": "DEFAULT",
      "opening_time_start": 0,
      "opening_time_end": 0,
      "dining_time_start": 0,
      "dining_time_end": 0,
      "building": "DEFAULT",
      "street": "DEFAULT",
      "city": "DEFAULT",
      "google_maps_link": "DEFAULT",
      "homepage": "DEFAULT"
    },
    {
      "name": "uzh-untere-mensa-lunch",
      "facility_id": "147",
      "name_display": "UZH Untere Mensa (Lunch)",
      "location": "DEFAULT",
      "opening_time_start": 0,
      "opening_time_end": 0,
      "dining_time_start": 11.0,
      "dining_time_end": 14.3,
      "building": "DEFAULT",
      "street": "DEFAULT",
      "city": "DEFAULT",
      "google_maps_link": "DEFAULT",
      "homepage": "DEFAULT"
    },
    {
      "name": "uzh-untere-mensa-dinner",
      "facility_id": "149",
      "name_display": "UZH Untere Mensa (Dinner)",
      "location": "DEFAULT",
      "opening_time_start": 0,
      "opening_time_end": 0,
      "dining_time_start": 17.0,
      "dining_time_end": 19.0,
      "building": "DEFAULT",
      "street": "DEFAULT",
      "city": "DEFAULT",
      "google_maps_link": "DEFAULT",
      "homepage": "DEFAULT"
    },
    {
      "name": "uzh-obere-mensa",
      "facility_id": "148",
      "name_display": "UZH Obere Mensa",
      "location": "DEFAULT",
      "opening_time_start": 0,
      "opening_time_end": 0,
      "dining_time_start": 11.0,
      "dining_time_end": 14.3,
      "building": "DEFAULT",
      "street": "DEFAULT",
      "city": "DEFAULT",
      "google_maps_link": "DEFAULT",
      "homepage": "DEFAULT"
    },
    {
      "name": "lichthof-rondell",
      "facility_id": "150",
      "name_display": "Lichthof Rondell",
      "location": "DEFAULT",
      "opening_time_start": 0,
      "opening_time_end": 0,
      "dining_time_start": 11.0,
      "dining_time_end": 14.0,
      "building": "DEFAULT",
      "street": "DEFAULT",
      "city": "DEFAULT",
      "google_maps_link": "DEFAULT",
      "homepage": "DEFAULT"
    },
    {
      "name": "raemi-59",
      "facility_id": "346",
      "name_display": "R채mi 59",
      "location": "DEFAULT",
      "opening_time_start": 0,
      "opening_time_end": 0,
      "dining_time_start": 11.0,
      "dining_time_end": 14.0,
      "building": "DEFAULT",
      "street": "DEFAULT",
      "city": "DEFAULT",
      "google_maps_link": "DEFAULT",
      "homepage": "DEFAULT"
    },
    {
      "name": "platte-14",
      "facility_id": "143",
      "name_display": "Platte 14",
      "location": "DEFAULT",
      "opening_time_start": 0,
      "opening_time_end": 0,
      "dining_time_start": 11.0,
      "dining_time_end": 13.3,
      "building": "DEFAULT",
      "street": "DEFAULT",
      "city": "DEFAULT",
      "google_maps_link": "DEFAULT",
      "homepage": "DEFAULT"
    },
    {
      "name": "irchel",
      "facility_id": "142",
      "name_display": "Irchel",
      "location": "DEFAULT",
      "opening_time_start": 0,
      "opening_time_end": 0,
      "dining_time_start": 11.0,
      "dining_time_end": 14.0,
      "building": "DEFAULT",
      "street": "DEFAULT",
      "city": "DEFAULT",
      "google_maps_link": "DEFAULT",
      "homepage": "DEFAULT"
    },
    {
      "name": "cafeteria-irchel-atrium",
      "facility_id": "176",
      "name_display": "Caftereria Irchel Atrium",
      "location": "DEFAULT",
      "opening_time_start": 0,
      "opening_time_end": 0,
      "dining_time_start": 11.0,
      "dining_time_end": 14.0,
      "building": "DEFAULT",
      "street": "DEFAULT",
      "city": "DEFAULT",
      "google_maps_link": "DEFAULT",
      "homepage": "DEFAULT"
    },
    {
      "name": "cafeteria-irchel-seerose-lunch",
      "facility_id": "241",
      "name_display": "Cafeteria Irchel Seerose (Lunch)",
      "location": "DEFAULT",
      "opening_time_start": 0,
      "opening_time_end": 0,
      "dining_time_start": 11.3,
      "dining_time_end": 13.0,
      "building": "DEFAULT",
      "street": "DEFAULT",
      "city": "DEFAULT",
      "google_maps_link": "DEFAULT",
      "homepage": "DEFAULT"
    },
    {
      "name": "cafeteria-irchel-seerose-dinner",
      "facility_id": "256",
      "name_display": "Cafter Irchel Seerose (Dinner)",
      "location": "DEFAULT",
      "opening_time_start": 0,
      "opening_time_end": 0,
      "dining_time_start": 17.0,
      "dining_time_end": 19.3,
      "building": "DEFAULT",
      "street": "DEFAULT",
      "city": "DEFAULT",
      "google_maps_link": "DEFAULT",
      "homepage": "DEFAULT"
    },
    {
      "name": "binzmuehle",
      "facility_id": "184",
      "name_display": "Binzm체hle",
      "location": "DEFAULT",
      "opening_time_start": 0,
      "opening_time_end": 0,
      "dining_time_start": 11.0,
      "dining_time_end": 14.3,
      "building": "DEFAULT",
      "street": "DEFAULT",
      "city": "DEFAULT",
      "google_maps_link": "DEFAULT",
      "homepage": "DEFAULT"
    },
    {
      "name": "cafeteria-cityport",
      "facility_id": "391",
      "name_display": "Cafeteria Cityport",
      "location": "DEFAULT",
      "opening_time_start": 0,
      "opening_time_end": 0,
      "dining_time_start": 11.0,
      "dining_time_end": 14.0,
      "building": "DEFAULT",
      "street": "DEFAULT",
      "city": "DEFAULT",
      "google_maps_link": "DEFAULT",
      "homepage": "DEFAULT"
    },
    {
      "name": "cafeteria-zentrum-fuer-zahnmedizin",
      "facility_id": "151",
      "name_display": "Cafeteria Zentrum f체r Zahnmedizin",
      "location": "DEFAULT",
      "opening_time_start": 0,
      "opening_time_end": 0,
      "dining_time_start": 11.0,
      "dining_time_end": 13.45,
      "building": "DEFAULT",
      "street": "DEFAULT",
      "city": "DEFAULT",
      "google_maps_link": "DEFAULT",
      "homepage": "DEFAULT"
    },
    {
      "name": "cafeteria-tierspital",
      "facility_id": "146",
      "name_display": "Cafeteria Tierspital",
      "location": "DEFAULT",
      "opening_time_start": 0,
      "opening_time_end": 0,
      "dining_time_start": 6.3,
      "dining_time_end": 16.3,
      "building": "DEFAULT",
      "street": "DEFAULT",
      "city": "DEFAULT",
      "google_maps_link": "DEFAULT",
      "homepage": "DEFAULT"
    },
    {
      "name": "cafeteria-botanischer-garten",
      "facility_id": "144",
      "name_display": "Cafeteria Botanischer Garten",
      "location": "DEFAULT",
      "opening_time_start": 0,
      "opening_time_end": 0,
      "dining_time_start": 9.0,
      "dining_time_end": 16.0,
      "building": "DEFAULT",
      "street": "DEFAULT",
      "city": "DEFAULT",
      "google_maps_link": "DEFAULT",
      "homepage": "DEFAULT"
    },
    {
      "name": "cafeteria-plattenstrasse",
      "facility_id": "143",
      "name_display": "Cafeteria Plattenstrasse",
      "location": "DEFAULT",
      "opening_time_start": 0,
      "opening_time_end": 0,
      "dining_time_start": 9.0,
      "dining_time_end": 14.3,
      "building": "DEFAULT",
      "street": "DEFAULT",
      "city": "DEFAULT",
      "google_maps_link": "DEFAULT",
      "homepage": "DEFAULT"
    }
  ]
}
